City_ID,City,Lat,Lng,Max Temp,Humidity,Cloudiness,Wind Speed,Country,Date
0,port-aux-francais,-49.35,70.2167,2.81,76,78,22.93,TF,1689251271
1,nabire,-3.3667,135.4833,24.89,90,100,0.93,ID,1689251324
2,shingu,33.7333,135.9833,24.75,92,99,2.44,JP,1689251324
3,khandud,36.9513,72.318,25.01,12,0,1.78,AF,1689251325
4,port elizabeth,-33.918,25.5701,21.17,68,0,3.09,ZA,1689251326
5,adamstown,-25.066,-130.1015,21.14,80,32,4.17,PN,1689251272
6,port alfred,-33.5906,26.891,20.66,73,3,0.45,ZA,1689251327
7,sitka,57.0531,-135.33,13.94,77,100,0.0,US,1689251291
8,vilyuchinsk,52.9306,158.4028,11.15,90,11,0.79,RU,1689251328
9,vila franca do campo,37.7167,-25.4333,21.23,79,90,6.13,PT,1689251328
10,gbarnga,6.9956,-9.4722,29.43,65,92,1.38,LR,1689251329
11,melekeok village,7.4957,134.6367,25.31,88,100,0.0,PW,1689251329
12,shimoda,34.6667,138.95,26.72,84,100,6.93,JP,1689251330
13,itaituba,-4.2761,-55.9836,28.09,78,0,0.0,BR,1689251134
14,yanykurgan,43.915,67.2481,42.72,10,1,7.11,KZ,1689251331
15,greymouth,-42.4667,171.2,10.94,92,100,3.04,NZ,1689251332
16,west island,-12.1568,96.8225,26.99,78,75,6.17,CC,1689251332
17,alofi,-19.0595,-169.9187,24.75,85,67,6.56,NU,1689251333
18,margaret river,-33.95,115.0667,13.89,65,100,6.51,AU,1689251333
19,jamestown,42.097,-79.2353,22.77,94,100,4.12,US,1689251248
20,grand-bassam,5.2118,-3.7388,24.98,81,99,4.04,CI,1689251334
21,papatowai,-46.5619,169.4708,10.5,86,100,7.15,NZ,1689251288
22,olonkinbyen,70.9221,-8.7187,5.21,99,100,7.43,SJ,1689251335
23,dryden,49.7833,-92.7503,15.16,82,40,3.09,CA,1689251199
24,arno,60.1167,18.6333,18.77,50,59,3.58,SE,1689251336
25,waitangi,-43.9535,-176.5597,7.12,70,94,12.54,NZ,1689251282
26,utrik,11.2278,169.8474,28.21,80,53,7.91,MH,1689251337
27,albany,42.6001,-73.9662,23.36,87,100,1.65,US,1689251300
28,muncar,-8.4333,114.3333,24.27,87,99,2.53,ID,1689251338
29,moyale,3.5167,39.0584,25.95,40,70,7.99,KE,1689251339
30,port saint john's,-31.6229,29.5448,19.36,58,1,2.84,ZA,1689251339
31,kulhudhuffushi,6.6221,73.07,28.12,77,60,5.9,MV,1689251340
32,whitehorse,60.7161,-135.0538,9.43,94,20,4.12,CA,1689251065
33,geraldton,-28.7667,114.6,18.23,82,75,4.12,AU,1689251277
34,edinburgh of the seven seas,-37.0676,-12.3116,14.67,94,94,14.83,SH,1689251298
35,blackmans bay,-43.0167,147.3167,13.18,57,100,4.71,AU,1689251278
36,linxia chengguanzhen,35.6003,103.2064,13.26,80,100,1.39,CN,1689251342
37,coquimbo,-29.9533,-71.3436,10.85,76,0,3.09,CL,1689251343
38,sittwe,20.15,92.9,26.42,91,100,5.38,MM,1689251344
39,el bolson,-41.9667,-71.5167,2.37,89,90,2.01,AR,1689251344
40,yuzhno-kurilsk,44.0306,145.8556,14.56,98,100,3.08,RU,1689251345
41,pokrovsk,48.282,37.1758,25.25,34,30,3.76,UA,1689251345
42,ushuaia,-54.8,-68.3,4.81,60,40,1.54,AR,1689251308
43,pestravka,52.405,49.9583,20.05,41,99,4.62,RU,1689251347
44,grytviken,-54.2811,-36.5092,-3.24,83,18,5.31,GS,1689251286
45,dudinka,69.4058,86.1778,7.57,58,100,5.45,RU,1689251348
46,galliano,29.4422,-90.2992,28.0,81,38,3.22,US,1689251348
47,tromso,69.6496,18.957,25.01,36,0,2.57,NO,1689251349
48,borogontsy,62.6683,131.1683,11.68,94,100,1.74,RU,1689251350
49,jiayuguan,39.8167,98.3,25.95,19,8,6.49,CN,1689251351
50,flin flon,54.7682,-101.865,13.91,77,75,2.06,CA,1689251351
51,zhaoyuan,37.3592,120.3964,24.48,97,98,4.24,CN,1689251352
52,lompoc,34.6391,-120.4579,12.0,97,100,0.0,US,1689251296
53,westport,41.1415,-73.3579,28.19,81,0,1.34,US,1689251122
54,wailua homesteads,22.0669,-159.378,25.44,86,20,5.14,US,1689251306
55,saint-joseph,-21.3667,55.6167,24.21,78,31,2.29,RE,1689251354
56,sandnessjoen,66.0217,12.6316,21.06,49,0,2.57,NO,1689251355
57,tamanrasset,22.785,5.5228,33.95,9,0,1.03,DZ,1689251355
58,mount isa,-20.7333,139.5,12.87,88,0,2.57,AU,1689251164
59,longyearbyen,78.2186,15.6401,10.91,62,20,8.23,SJ,1689251356
60,harstad,68.799,16.5293,24.66,47,67,3.13,NO,1689251357
61,flying fish cove,-10.4217,105.6791,24.82,78,40,6.17,CX,1689251357
62,constantia,44.1833,28.65,35.39,61,2,6.2,RO,1689251358
63,afaahiti,-17.75,-149.2833,22.93,81,55,9.46,PF,1689251358
64,olinda,-8.0089,-34.8553,25.85,83,75,1.03,BR,1689251359
65,port douglas,-16.4833,145.4667,22.2,83,74,7.59,AU,1689251359
66,ilhabela,-23.7781,-45.3581,27.2,47,1,3.59,BR,1689251360
67,san javier,37.8063,-0.8374,35.94,68,20,5.14,ES,1689251259
68,iqaluit,63.7506,-68.5145,7.85,100,100,1.54,CA,1689251362
69,nikolayevsk-on-amure,53.1406,140.73,16.64,72,11,1.71,RU,1689251362
70,eyl,7.9803,49.8164,32.79,46,44,11.64,SO,1689251363
71,tura,25.5198,90.2201,24.94,95,100,2.07,IN,1689251364
72,ribeira grande,38.5167,-28.7,23.22,78,40,5.81,PT,1689251310
73,bonthe,7.5264,-12.505,27.59,78,46,3.29,SL,1689251365
74,kupang,-10.1667,123.5833,24.84,82,69,6.18,ID,1689251366
75,mers el kebir,35.7279,-0.7081,40.48,52,0,5.66,DZ,1689251367
76,hithadhoo,-0.6,73.0833,28.57,74,74,3.05,MV,1689251367
77,nova sintra,14.8667,-24.7167,23.08,79,85,1.73,CV,1689251301
78,talnakh,69.4865,88.3972,7.34,96,100,2.31,RU,1689251368
79,sao vicente,-23.9631,-46.3919,28.98,40,0,5.81,BR,1689251369
80,mwinilunga,-11.7358,24.4293,26.68,21,0,2.54,ZM,1689251370
81,port lincoln,-34.7333,135.8667,13.77,56,89,6.45,AU,1689251370
82,ebute ikorodu,6.6009,3.4882,27.18,78,40,4.63,NG,1689251371
83,machico,32.7,-16.7667,28.73,70,20,9.26,PT,1689251371
84,antofagasta,-23.65,-70.4,14.6,49,1,1.5,CL,1689251354
85,aykhal,66.0,111.5,9.88,54,98,5.74,RU,1689251311
86,amudalavalasa,18.4167,83.9,30.15,71,97,5.31,IN,1689251373
87,thompson,55.7435,-97.8558,11.09,93,75,2.57,CA,1689251282
88,sarzeau,47.5333,-2.7667,22.88,75,54,6.07,FR,1689251374
89,vadso,70.0744,29.7487,24.49,48,0,7.72,NO,1689251374
90,hermanus,-34.4187,19.2345,17.67,53,0,3.52,ZA,1689251281
91,college,64.8569,-147.8028,13.28,87,40,1.54,US,1689251376
92,yuci,37.6803,112.7319,25.86,41,0,3.0,CN,1689251376
93,puerto natales,-51.7236,-72.4875,-3.75,86,75,1.03,CL,1689251287
94,fada,9.5667,8.3,25.32,77,92,2.0,NG,1689251377
95,si chiang mai,17.9564,102.5867,32.75,66,20,0.0,TH,1689251378
96,severo-yeniseyskiy,60.3725,93.0408,13.53,66,99,2.81,RU,1689251378
97,bethel,41.3712,-73.414,26.2,83,0,0.45,US,1689251274
98,bamboo flat,11.7,92.7167,29.05,74,40,4.12,IN,1689251276
99,christchurch,-43.5333,172.6333,9.15,86,71,2.06,NZ,1689251380
100,nadi,-17.8,177.4167,23.0,78,75,3.6,FJ,1689251380
101,mont-dore,-22.2833,166.5833,21.67,99,70,4.59,NC,1689251381
102,gadzhiyevo,69.2551,33.3362,19.33,42,100,7.44,RU,1689251381
103,bredasdorp,-34.5322,20.0403,16.95,56,1,2.94,ZA,1689251382
104,saudarkrokur,65.7461,-19.6394,5.19,97,100,5.38,IS,1689251382
105,launceston,-41.45,147.1667,12.67,83,40,9.26,AU,1689251383
106,kone,-21.0595,164.8658,18.96,62,67,1.44,NC,1689251383
107,zarqa,32.0728,36.088,39.66,14,0,2.57,JO,1689251384
108,fisterra,42.9049,-9.2629,24.3,69,84,2.09,ES,1689251385
109,madang,-5.2246,145.7966,26.35,86,76,1.17,PG,1689251385
110,santo antonio,-6.3106,-35.4789,26.78,67,16,4.98,BR,1689251386
111,fortuna,40.5982,-124.1573,13.29,94,32,2.22,US,1689251386
112,ungheni,47.2042,27.7958,30.36,45,0,2.57,MD,1689251387
113,chonchi,-42.6128,-73.8092,6.18,95,100,2.27,CL,1689251387
114,guane,22.2025,-84.0875,27.35,80,20,2.96,CU,1689251388
115,puerto ayora,-0.7393,-90.3518,24.75,92,25,2.68,EC,1689251290
116,kodiak,57.79,-152.4072,9.73,93,0,2.06,US,1689251389
117,al kharijah,25.4514,30.5464,39.64,11,0,6.81,EG,1689251389
118,nizhniy kuranakh,58.8353,125.4869,11.94,97,84,0.83,RU,1689251390
119,bilibino,68.0546,166.4372,15.28,69,89,1.5,RU,1689251286
120,sanctuary point,-35.1114,150.629,14.55,51,29,4.85,AU,1689251391
121,ilulissat,69.2167,-51.1,10.01,66,40,2.57,GL,1689251391
122,gaiman,-43.2897,-65.4929,2.61,74,3,3.34,AR,1689251392
123,boa vista,2.8197,-60.6733,23.99,94,75,3.6,BR,1689251393
124,georgetown,5.4112,100.3354,29.97,72,20,2.68,MY,1689251334
125,nogliki,51.8333,143.1667,9.96,83,9,4.66,RU,1689251394
126,egilsstadir,65.2653,-14.3948,8.95,66,100,6.69,IS,1689251394
127,saint-philippe,-21.3585,55.7679,24.77,79,48,2.49,RE,1689251395
128,happy valley-goose bay,53.3168,-60.3315,21.17,73,75,3.09,CA,1689251395
129,parras de la fuente,25.4167,-102.1833,23.83,43,44,2.21,MX,1689251396
130,susuman,62.7833,148.1667,16.28,75,98,2.4,RU,1689251397
131,alindao,5.0267,21.2088,32.38,52,51,0.5,CF,1689251398
132,isafjordur,66.0755,-23.124,9.02,76,100,10.29,IS,1689251300
133,leeton,-34.5667,146.4,7.83,75,73,2.86,AU,1689251399
134,buala,-8.145,159.5921,25.88,88,100,2.49,SB,1689251400
135,wynyard,-41.0,145.7167,12.7,74,100,8.09,AU,1689251400
136,puerto baquerizo moreno,-0.9,-89.6,24.86,80,13,3.52,EC,1689251401
137,rouissat,31.9243,5.3502,41.57,10,0,4.87,DZ,1689251402
138,ust-nera,64.5667,143.2,21.08,64,36,2.17,RU,1689251312
139,yellowknife,62.456,-114.3525,18.29,63,75,4.12,CA,1689251270
140,mwene-ditu,-7.0,23.45,31.72,26,27,2.91,CD,1689251405
141,ulladulla,-35.35,150.4667,12.13,60,77,4.7,AU,1689251406
142,carnarvon,-24.8667,113.6333,19.17,73,0,8.06,AU,1689251408
143,oktyabr'skiy,54.4815,53.471,14.39,94,95,1.95,RU,1689251295
144,altai,46.3722,96.2583,16.29,50,3,4.98,MN,1689251409
145,enewetak,11.3474,162.3373,28.57,79,18,7.93,MH,1689251409
146,hawaiian paradise park,19.5933,-154.9731,22.24,93,100,2.06,US,1689251410
147,derzhavinsk,51.1,66.3167,30.37,36,19,7.81,KZ,1689251411
148,punta arenas,-53.15,-70.9167,-0.99,86,75,4.12,CL,1689251301
149,lethbridge,49.7,-112.8186,13.81,93,20,2.57,CA,1689251319
150,pasuquin,18.3328,120.6177,27.97,83,75,6.69,PH,1689251412
151,karratha,-20.7377,116.8463,22.88,62,6,1.06,AU,1689251413
152,yeppoon,-23.1333,150.7333,16.88,83,0,2.48,AU,1689251414
153,muang phonsavan,19.45,103.2167,19.74,96,29,1.33,LA,1689251415
154,floro,61.5996,5.0328,18.04,72,75,3.09,NO,1689251415
155,mount pleasant,32.7941,-79.8626,29.44,88,0,2.06,US,1689251307
156,invercargill,-46.4,168.35,9.95,93,100,3.42,NZ,1689251417
157,bu'aale,1.0833,42.5833,32.98,34,100,8.33,SO,1689251418
158,barra de santo antonio,-9.4047,-35.5072,24.6,72,13,1.55,BR,1689251418
159,leh,34.1667,77.5833,19.09,18,0,3.04,IN,1689251419
160,columbia city,41.1573,-85.4883,19.43,87,84,2.17,US,1689251420
161,ilha de mocambique,-15.0342,40.7358,26.88,42,8,6.77,MZ,1689251420
162,primorsk,46.7348,36.3443,25.35,46,26,7.23,UA,1689251421
163,colon,9.3592,-79.9014,23.84,90,100,1.79,PA,1689251169
164,kruisfontein,-34.0033,24.7314,19.94,45,0,4.14,ZA,1689251422
165,acapulco de juarez,16.8634,-99.8901,26.9,78,40,3.6,MX,1689251154
166,iskateley,67.6803,53.1512,19.7,39,0,7.81,RU,1689251423
167,guerrero negro,27.9769,-114.0611,18.77,87,100,5.54,MX,1689251423
168,coahuayana de hidalgo,18.7,-103.6583,24.82,77,21,1.62,MX,1689251424
169,mersing,2.4312,103.8405,25.95,89,40,1.54,MY,1689251425
170,tolanaro,-25.0319,46.9987,22.04,53,40,3.09,MG,1689251293
171,okhotsk,59.3833,143.3,11.15,93,76,1.56,RU,1689251426
172,tofol,5.3248,163.0078,28.26,79,100,6.04,FM,1689251427
173,vilcun,-38.65,-72.2333,-2.59,90,96,0.7,CL,1689251427
174,badger,64.8,-147.5333,13.23,91,0,1.54,US,1689251428
175,weno,7.4515,151.8468,28.55,75,25,4.84,FM,1689251428
176,queenstown,-31.8976,26.8753,17.38,23,0,1.83,ZA,1689251429
177,roma,43.2128,-75.4557,22.71,91,75,3.6,US,1689251276
178,san pedro pochutla,15.7333,-96.4667,24.84,68,100,1.64,MX,1689251430
179,victoria,22.2855,114.1577,31.29,77,58,4.02,HK,1689251186
180,sao joao da barra,-21.6403,-41.0511,25.05,36,0,4.38,BR,1689251431
181,canto do buriti,-8.11,-42.9444,30.61,38,0,3.65,BR,1689251431
182,ulan bator,47.9077,106.8832,15.07,72,40,7.0,MN,1689251168
183,bandarbeyla,9.4942,50.8122,30.52,51,4,13.49,SO,1689251432
184,fort abbas,29.1925,72.8536,34.96,42,19,11.43,PK,1689251433
185,kenai,60.5544,-151.2583,12.05,91,100,0.0,US,1689251433
186,namibe,-15.1961,12.1522,23.49,60,0,3.62,AO,1689251434
187,garissa,-0.4536,39.6401,31.97,35,99,11.56,KE,1689251435
188,red oak,32.5176,-96.8044,28.02,82,0,5.14,US,1689251383
189,fallon,39.4735,-118.7774,18.84,38,0,2.57,US,1689251436
190,wenling,28.3669,121.36,26.59,91,94,5.22,CN,1689251249
191,tiksi,71.6872,128.8694,7.61,72,86,3.92,RU,1689251307
192,morden,49.1919,-98.1014,15.91,82,7,3.6,CA,1689251399
193,tyrnyauz,43.3828,42.9183,19.13,90,94,2.66,RU,1689251438
194,harnosand,62.6323,17.9379,20.01,61,32,4.6,SE,1689251438
195,lebu,-37.6167,-73.65,5.97,80,73,2.09,CL,1689251292
196,myshkin,57.7897,38.4545,10.71,98,100,3.29,RU,1689251440
197,ylitornio,66.3089,23.6773,16.55,70,100,3.69,FI,1689251440
198,nemuro,43.3236,145.575,15.51,99,100,3.42,JP,1689251441
199,avarua,-21.2078,-159.775,24.03,88,20,3.6,CK,1689251441
200,fort mcmurray,56.7268,-111.381,12.77,82,75,2.57,CA,1689251442
201,uturoa,-16.7333,-151.4333,25.92,77,6,7.79,PF,1689251443
202,anadyr,64.75,177.4833,9.28,93,100,7.0,RU,1689251303
203,hau-ri,41.2006,129.4703,21.5,97,100,0.56,KP,1689251444
204,booue,-0.0921,11.9385,34.34,40,16,1.79,GA,1689251445
205,zyryanovsk,49.7386,84.2719,32.98,27,0,3.25,KZ,1689251445
206,nuku'alofa,-21.1333,-175.2,21.19,68,20,4.12,TO,1689251446
207,nuuk,64.1835,-51.7216,10.34,76,75,8.75,GL,1689251297
208,tazacorte,28.629,-17.9293,27.54,61,0,8.23,ES,1689251447
209,nouadhibou,20.931,-17.0347,24.99,73,40,6.69,MR,1689251448
210,mukalla,14.5425,49.1242,39.35,40,74,4.34,YE,1689251448
211,nema,57.5067,50.5011,16.82,71,100,2.25,RU,1689251449
212,magadan,59.5667,150.8,12.52,98,71,1.88,RU,1689251449
213,la passe,45.5549,-0.8967,23.9,50,100,4.79,FR,1689251450
214,chust,41.0094,71.2287,38.66,15,8,3.85,UZ,1689251450
215,howard springs,-12.497,131.047,25.95,85,100,2.93,AU,1689251451
216,kiunga,-6.1219,141.2906,23.3,96,79,1.03,PG,1689251452
217,izyum,49.2088,37.2485,25.88,39,15,4.82,UA,1689251452
218,lagunillas,10.1301,-71.2595,28.89,76,100,3.65,VE,1689251453
219,paphos,34.7667,32.4167,37.35,62,0,4.63,CY,1689251409
220,matoury,4.8483,-52.3317,26.98,83,20,1.03,GF,1689251454
221,clodomira,-27.5744,-64.1311,10.99,57,59,5.82,AR,1689251455
222,tan-tan,28.438,-11.1032,30.97,51,96,4.63,MA,1689251455
223,itoman,26.1247,127.6694,30.01,86,20,5.14,JP,1689251456
224,rio grande,-32.035,-52.0986,12.06,84,100,6.58,BR,1689251456
225,chibougamau,49.9168,-74.3659,15.79,72,75,3.09,CA,1689251457
226,chiang klang,19.2938,100.8617,24.61,97,7,0.81,TH,1689251458
227,dwarka,22.2394,68.9678,29.01,79,95,6.89,IN,1689251459
228,grand falls-windsor,48.9332,-55.6649,19.72,84,98,0.89,CA,1689251459
229,arafat,21.3594,39.9664,40.35,23,100,7.41,SA,1689251460
230,tinghir,31.5157,-5.5343,35.5,15,100,5.87,MA,1689251461
231,kamyzyak,46.11,48.0736,30.01,25,40,10.0,RU,1689251461
232,andergrove,-21.0833,149.1833,20.36,91,31,3.56,AU,1689251462
233,sorong,-0.8833,131.25,26.45,85,100,2.2,ID,1689251463
234,korla,41.7597,86.1469,32.16,27,0,1.13,CN,1689251464
235,inarajan village,13.2736,144.7484,27.54,95,100,6.12,GU,1689251465
236,cromer,52.9312,1.2989,22.62,63,29,4.47,GB,1689251465
237,sabang,5.8933,95.3214,28.06,76,100,11.81,ID,1689251466
238,palmas,-10.2128,-48.3603,26.93,57,0,1.03,BR,1689251467
239,suva,-18.1416,178.4415,21.71,88,75,3.09,FJ,1689251467
240,cabo san lucas,22.8909,-109.9124,29.17,68,15,0.89,MX,1689251282
241,carutapera,-1.195,-46.02,29.02,68,29,3.64,BR,1689251468
242,kirensk,57.7853,108.1119,17.3,58,100,2.95,RU,1689251469
243,petropavlovsk-kamchatsky,53.0452,158.6483,10.33,100,0,2.0,RU,1689251459
244,tabas,33.5959,56.9244,43.12,8,0,3.09,IR,1689251470
245,chivhu,-19.0211,30.8922,15.7,43,44,4.81,ZW,1689251470
246,vila velha,-20.3297,-40.2925,26.08,69,0,4.12,BR,1689251304
247,shuya,56.8487,41.3883,11.62,93,100,2.96,RU,1689251471
248,cova figueira,14.8905,-24.2934,23.93,78,94,1.99,CV,1689251472
249,hammerfest,70.6634,23.6821,26.25,36,0,6.17,NO,1689251473
250,lihue,21.9789,-159.3672,25.77,81,20,5.14,US,1689251474
251,brookings,44.3114,-96.7984,18.54,96,0,0.89,US,1689251270
252,youghal,51.95,-7.8506,16.97,89,100,6.97,IE,1689251475
253,metahara,8.9,39.9167,35.68,23,94,4.79,ET,1689251475
254,lepe,37.2548,-7.2043,36.17,24,0,2.9,ES,1689251476
255,guardo,42.7897,-4.8482,23.69,34,38,3.36,ES,1689251477
256,vanimo,-2.6741,141.3028,26.12,88,89,2.36,PG,1689251477
257,brisas de zicatela,15.8369,-97.0419,26.41,76,100,2.76,MX,1689251478
258,bonner,48.8333,-117.0013,11.83,75,6,1.11,US,1689251478
259,sur,22.5667,59.5289,35.5,50,100,1.73,OM,1689251479
260,hermosillo,29.0667,-110.9667,31.95,60,75,0.89,MX,1689251167
261,dunedin,-45.8742,170.5036,10.45,76,100,1.34,NZ,1689251480
262,isangel,-19.55,169.2667,21.9,58,100,7.61,VU,1689251481
263,udachny,66.4167,112.4,11.36,71,97,4.27,RU,1689251482
264,novodvinsk,64.4165,40.8122,20.06,62,100,4.14,RU,1689251484
265,ormond-by-the-sea,29.3491,-81.0665,28.38,90,0,2.57,US,1689251484
266,seydi,39.4816,62.9137,40.52,15,40,11.06,TM,1689251485
267,tres coracoes,-21.6969,-45.2533,24.05,40,0,6.17,BR,1689251485
268,mikkeli,61.6886,27.2723,23.06,49,0,2.06,FI,1689251486
269,fort bragg,35.139,-79.006,26.78,95,100,4.12,US,1689251487
270,francistown,-21.17,27.5079,19.4,29,5,5.84,BW,1689251487
271,stanley,54.868,-1.6985,20.84,53,40,6.69,GB,1689251488
272,touros,-5.1989,-35.4608,28.71,62,35,6.52,BR,1689251488
273,nizhnesortymskiy,62.4397,71.7603,18.31,53,100,5.27,RU,1689251489
274,vilyuysk,63.7553,121.6247,12.58,84,7,2.6,RU,1689251490
275,namdrik,5.5994,168.1028,28.87,75,100,7.29,MH,1689251490
276,cill airne,52.05,-9.5167,16.03,94,100,2.06,IE,1689251491
277,nar'yan-mar,67.6713,53.087,19.98,37,1,8.25,RU,1689251294
278,san luis,-33.295,-66.3356,2.77,74,6,1.99,AR,1689251492
279,dompu,-8.5356,118.4622,22.29,88,27,1.09,ID,1689251493
280,nishinoomote,30.7333,131.0,27.0,85,99,6.2,JP,1689251493
281,amga,60.8953,131.9608,12.89,96,100,3.41,RU,1689251494
282,mbanza-ngungu,-5.25,14.8667,34.31,18,62,1.91,CD,1689251494
283,praya,14.9215,-23.5087,29.3,61,75,4.12,CV,1689251495
284,rosarito,32.3333,-117.0333,21.8,65,0,3.23,MX,1689251495
285,la'ie,21.6477,-157.9253,26.98,79,92,4.02,US,1689251496
286,donji vakuf,44.1436,17.4,31.3,43,91,4.57,BA,1689251497
287,guayaramerin,-10.8368,-65.3614,24.03,94,0,0.51,BO,1689251497
288,atafu village,-8.5421,-172.5159,28.2,76,95,4.85,TK,1689251498
289,dawesville,30.9224,-84.0091,26.31,91,0,1.54,US,1689251498
290,gebeit,21.0667,36.3167,42.42,10,52,5.53,SD,1689251499
291,san luis de la loma,17.2706,-100.8939,26.76,76,32,3.0,MX,1689251499
292,kayyerkan,69.3786,87.7439,7.39,87,100,1.82,RU,1689251500
293,glace bay,46.1969,-59.957,19.32,98,100,3.58,CA,1689251500
294,albion,42.2431,-84.753,16.98,93,100,2.06,US,1689251501
295,motueka,-41.1333,173.0167,9.5,85,98,1.92,NZ,1689251501
296,port mathurin,-19.6833,63.4167,24.04,79,6,7.28,MU,1689251502
297,lazaro cardenas,17.9583,-102.2,25.74,84,23,1.81,MX,1689251503
298,howrah,22.5892,88.3103,32.0,14,75,5.14,IN,1689251503
299,podporozh'ye,60.9112,34.1706,14.81,84,100,0.46,RU,1689251504
300,gamboma,-1.8764,15.8644,35.88,20,2,2.43,CG,1689251504
301,zouerate,22.7187,-12.4521,46.37,5,5,7.55,MR,1689251505
302,ambodifotatra,-16.9833,49.85,23.88,72,95,12.06,MG,1689251505
303,manismata,-2.4667,111.0333,24.36,88,100,1.26,ID,1689251506
304,kingston,17.997,-76.7936,29.02,80,20,2.06,JM,1689251308
305,chake chake,-5.2459,39.7666,26.01,65,98,7.15,TZ,1689251507
306,luganville,-15.5333,167.1667,24.09,80,99,5.69,VU,1689251508
307,qaqortoq,60.7167,-46.0333,6.85,79,18,3.11,GL,1689251508
308,coxim,-18.5067,-54.76,26.88,35,100,3.26,BR,1689251509
309,alice springs,-23.7,133.8833,8.75,71,0,0.0,AU,1689251509
310,awjilah,29.1081,21.2869,36.68,15,0,4.89,LY,1689251510
311,lorengau,-2.0226,147.2712,27.44,80,35,4.81,PG,1689251511
312,caluula,11.9661,50.7569,29.52,74,5,4.53,SO,1689251511
313,usinsk,65.9939,57.5281,21.02,46,100,7.78,RU,1689251512
314,ust-tsilma,65.441,52.1498,15.95,81,88,2.72,RU,1689251277
315,magdagachi,53.45,125.8,22.59,45,10,3.21,RU,1689251513
316,lagunas,-5.2269,-75.6753,26.12,73,11,1.08,PE,1689251513
317,sechura,-5.5569,-80.8222,22.06,76,59,3.99,PE,1689251514
318,ashland,40.8167,-82.2665,23.98,86,51,6.0,US,1689251515
319,khabarovsk,48.4808,135.0928,18.89,88,0,0.0,RU,1689251231
320,pathein,16.7833,94.7333,26.55,89,100,2.82,MM,1689251516
321,opuwo,-18.0607,13.84,22.87,15,0,3.04,NA,1689251516
322,scarborough,54.2797,-0.4044,21.07,56,18,1.34,GB,1689251300
323,singaraja,-8.112,115.0882,25.58,83,55,2.76,ID,1689251517
324,lata,40.1629,-8.3327,28.6,45,6,3.99,PT,1689251518
325,burang,30.25,81.1667,10.93,84,100,1.71,CN,1689251518
326,kudahuvadhoo,2.6708,72.8944,28.23,73,8,1.91,MV,1689251519
327,filadelfia,39.9523,-75.1638,26.7,85,75,3.09,US,1689251236
328,plettenberg bay,-34.0527,23.3716,16.7,62,0,3.82,ZA,1689251520
329,salinopolis,-0.6136,-47.3561,28.37,74,3,4.92,BR,1689251520
330,kiruna,67.8557,20.2251,16.51,67,100,7.2,SE,1689251521
331,crane,31.3974,-102.3501,27.04,58,34,5.67,US,1689251521
332,fort-shevchenko,44.5086,50.263,25.04,58,2,6.33,KZ,1689251522
333,sao miguel do araguaia,-13.275,-50.1628,31.48,24,0,2.49,BR,1689251523
334,ozimek,50.6794,18.2137,20.56,85,100,1.3,PL,1689251523
335,new norfolk,-42.7826,147.0587,13.84,55,100,3.87,AU,1689251524
336,puerto deseado,-47.7503,-65.8938,3.85,87,100,5.21,AR,1689251524
337,calipatria,33.1256,-115.5142,33.27,39,70,2.14,US,1689251525
338,kangding,30.0513,101.9603,17.23,99,100,2.13,CN,1689251526
339,manoharpur,27.3,75.95,32.06,57,73,5.28,IN,1689251526
340,sanming,26.2486,117.6186,29.05,66,100,1.35,CN,1689251527
341,gizo,-8.103,156.8419,26.8,82,100,6.79,SB,1689251527
342,banjar,-8.19,114.9675,24.16,89,31,2.94,ID,1689251528
343,rumonge,-3.9736,29.4386,26.67,50,4,2.11,BI,1689251529
344,kapuskasing,49.4169,-82.4331,14.05,88,40,1.03,CA,1689251529
345,aral,40.5156,81.2636,35.82,15,0,4.52,CN,1689251530
346,bardai,11.65,7.2333,32.64,40,58,2.06,NG,1689251530
347,kristiansund,63.1115,7.732,16.03,77,75,2.57,NO,1689251531
348,ji'an,27.1172,114.9793,31.65,53,100,2.13,CN,1689251532
349,sirte,31.2089,16.5887,28.73,52,0,5.6,LY,1689251533
350,thu dau mot,10.9667,106.65,28.03,94,75,1.03,VN,1689251534
351,adam,22.3756,57.5233,42.5,19,100,3.41,OM,1689251534
352,bubaque,11.2833,-15.8333,27.78,78,35,3.2,GW,1689251535
353,praia da vitoria,38.7333,-27.0667,24.14,78,40,6.44,PT,1689251535
354,enriquillo,17.9,-71.2333,25.82,86,100,5.67,DO,1689251536
355,bengkulu,-3.8004,102.2655,26.44,78,91,4.17,ID,1689251296
356,bria,6.5423,21.9863,30.75,58,13,1.14,CF,1689251537
357,kerikeri,-35.2268,173.9474,11.62,92,10,1.34,NZ,1689251537
358,susz,53.7174,19.3365,24.84,55,100,2.99,PL,1689251538
359,siwa oasis,29.2041,25.5195,36.24,11,2,3.91,EG,1689251538
360,albertina,-22.2008,-46.6158,21.15,42,71,5.48,BR,1689251539
361,salekhard,66.53,66.6019,16.46,35,0,4.36,RU,1689251540
362,al jawf,29.5,38.75,40.49,9,0,4.82,SA,1689251540
363,salinas,36.6777,-121.6555,14.45,93,100,2.57,US,1689251332
364,taroa,8.7058,171.2275,28.15,78,16,7.0,MH,1689251541
365,east ballina,-28.8667,153.5833,11.56,73,0,1.78,AU,1689251542
366,santiago de cao,-7.9589,-79.2392,22.07,83,100,2.06,PE,1689251542
367,novo aripuana,-5.1206,-60.3797,30.05,53,60,1.07,BR,1689251543
368,bijar,35.8668,47.6051,34.09,14,0,6.43,IR,1689251543
369,mejit,10.2753,170.8646,28.3,75,12,8.19,MH,1689251544
370,gali,42.6265,41.7381,26.8,45,0,2.38,GE,1689251545
371,noumea,-22.2763,166.4572,21.67,99,100,9.7,NC,1689251408
372,mossel bay,-34.1831,22.146,17.96,71,0,5.02,ZA,1689251546
373,yaren,-0.5472,166.916,27.97,73,100,0.25,NR,1689251547
374,ouani,-12.1322,44.4258,25.48,74,84,7.52,KM,1689251547
375,bangor,54.6534,-5.669,18.73,52,40,4.63,GB,1689251548
376,mont-laurier,46.5501,-75.4993,16.79,95,100,1.82,CA,1689251548
377,pontian kechil,1.4866,103.3896,29.44,83,94,1.67,MY,1689251549
378,saipan,15.1355,145.701,28.39,100,0,4.63,MP,1689251550
379,tabuk,17.4189,121.4443,24.33,95,100,1.7,PH,1689251550
380,ghatanji,20.1333,78.3167,27.86,79,92,3.56,IN,1689251551
381,kalevala,65.2,31.1667,17.52,50,100,3.67,RU,1689251551
382,sisimiut,66.9395,-53.6735,7.42,88,100,3.42,GL,1689251552
383,petauke,-14.2426,31.3253,20.4,40,88,4.43,ZM,1689251553
384,guarapari,-20.6667,-40.4975,26.61,48,0,5.29,BR,1689251554
385,cole harbour,44.6724,-63.4751,23.66,92,20,2.06,CA,1689251555
386,revda,56.801,59.9303,19.99,45,78,3.32,RU,1689251555
387,kiffa,16.6166,-11.4045,40.19,22,20,5.59,MR,1689251556
388,opoczno,51.3757,20.2783,19.25,78,100,1.67,PL,1689251556
389,tidjikja,18.5564,-11.4271,39.98,15,2,0.34,MR,1689251557
390,sibiti,-3.6819,13.3499,33.2,27,2,2.27,CG,1689251557
391,hudiksvall,61.729,17.1036,20.49,55,80,4.17,SE,1689251558
392,xai-xai,-25.0519,33.6442,20.47,53,50,3.35,MZ,1689251558
393,dikhil,11.5,42.1667,39.89,13,10,0.87,DJ,1689251559
394,quzhou,28.9594,118.8686,29.39,67,100,0.22,CN,1689251560
395,craig,40.5153,-107.5464,13.79,71,0,0.0,US,1689251560
396,auburn,47.3073,-122.2284,14.67,91,20,0.0,US,1689251380
397,mount pearl,47.5166,-52.7813,19.19,81,75,5.14,CA,1689251561
398,akureyri,65.6835,-18.0878,6.96,81,75,6.69,IS,1689251563
399,oum hadjer,13.2954,19.6966,32.75,40,83,1.23,TD,1689251563
400,argo,37.6333,22.7333,37.66,23,0,2.29,GR,1689251564
401,kisangani,0.5167,25.2,27.15,72,95,1.02,CD,1689251564
402,newport,51.5877,-2.9984,20.62,76,39,8.41,GB,1689251562
403,haiku-pauwela,20.9219,-156.3051,24.47,78,0,3.6,US,1689251565
404,masaya sur,16.497,121.7456,24.2,97,100,0.43,PH,1689251566
405,turabah,21.2141,41.6331,39.86,9,100,3.33,SA,1689251566
406,remire-montjoly,4.9167,-52.2667,27.02,83,20,1.03,GF,1689251284
407,marsa alam,25.0757,34.8918,34.27,47,10,6.38,EG,1689251568
408,boende,-0.2167,20.8667,31.25,51,100,0.79,CD,1689251568
409,jiuquan,39.7432,98.5174,25.16,22,52,5.06,CN,1689251569
410,rajanpur,29.1035,70.325,44.12,17,0,4.93,PK,1689251570
411,cambria,35.5641,-121.0808,17.21,70,0,1.59,US,1689251570
412,antigonish,45.6169,-61.9986,21.12,99,2,0.45,CA,1689251343
413,rikaze,29.25,88.8833,21.61,37,76,4.43,CN,1689251571
414,marsh harbour,26.5412,-77.0636,28.8,75,100,2.73,BS,1689251572
415,san antonio de pale,-1.4014,5.6325,24.09,86,12,4.54,GQ,1689251573
416,veinticinco de mayo,-35.4323,-60.1727,4.43,86,100,2.24,AR,1689251573
417,aasiaat,68.7098,-52.8699,3.34,93,92,2.31,GL,1689251574
418,lyozna,55.0249,30.7956,22.05,67,99,4.87,BY,1689251574
419,timbuktu,16.7735,-3.0074,39.95,21,98,5.01,ML,1689251575
420,juneau,58.3019,-134.4197,14.01,93,75,0.0,US,1689251575
421,ust'-ilimsk,58.0006,102.6619,18.9,43,100,3.4,RU,1689251500
422,port-vila,-17.7338,168.3219,20.78,83,100,5.14,VU,1689251577
423,pacific grove,36.6177,-121.9166,12.82,95,75,1.54,US,1689251577
424,mandalgovi,45.7625,106.2708,15.29,74,100,8.52,MN,1689251578
425,porto velho,-8.7619,-63.9039,26.03,94,0,0.51,BR,1689251578
426,san patricio,28.017,-97.5169,28.92,83,27,5.47,US,1689251579
427,dapa,9.7594,126.0531,25.78,91,100,3.09,PH,1689251579
428,road town,18.4167,-64.6167,30.05,74,40,7.2,VG,1689251580
429,portland,45.5234,-122.6762,16.53,80,0,0.89,US,1689251447
430,aldan,58.6031,125.3894,9.24,97,32,0.55,RU,1689251581
431,east london,-33.0153,27.9116,20.52,60,20,3.09,ZA,1689251581
432,naze,28.3667,129.4833,27.51,83,8,5.78,JP,1689251582
433,makokou,0.5738,12.8642,30.64,50,90,1.1,GA,1689251583
434,cockburn town,21.4612,-71.1419,27.78,82,66,8.24,TC,1689251373
435,urumqi,43.801,87.6005,33.53,16,0,3.0,CN,1689251584
436,koulamoutou,-1.1303,12.4736,26.21,30,1,0.7,GA,1689251584
437,tazovsky,67.4667,78.7,9.19,59,19,4.63,RU,1689251585
438,keflavik,64.0049,-22.5624,11.95,66,40,10.29,IS,1689251585
439,acarau,-2.8856,-40.12,29.77,58,0,6.39,BR,1689251521
440,hamilton,39.1834,-84.5333,25.41,90,75,2.57,US,1689251319
441,oriximina,-1.7656,-55.8661,29.18,58,87,1.79,BR,1689251587
442,contamana,-7.3333,-75.0167,26.9,66,3,1.02,PE,1689251588
443,pinki,56.9419,23.9108,24.01,50,40,3.6,LV,1689251588
444,pangody,65.85,74.4859,15.06,39,6,3.53,RU,1689251550
445,sawakin,19.1059,37.3321,40.25,29,100,5.26,SD,1689251589
446,mel'nikovo,56.5558,84.085,28.62,66,13,0.91,RU,1689251590
447,makum,27.5,95.45,23.8,100,100,1.51,IN,1689251590
448,el porvenir,13.7617,-87.3458,23.63,79,82,2.45,HN,1689251591
449,olavarria,-36.8927,-60.3225,3.41,80,72,3.09,AR,1689251592
450,leibnitz,46.7816,15.5384,25.58,87,100,0.89,AT,1689251593
451,tengrela,10.4869,-6.4097,32.45,48,84,3.08,CI,1689251593
452,klyuchi,52.2667,79.1667,28.62,41,92,9.69,RU,1689251594
453,mugumu,-1.85,34.7,26.11,34,92,1.76,TZ,1689251594
454,lib,8.3122,167.3766,28.56,79,21,7.05,MH,1689251595
455,hadibu,12.65,54.0333,27.75,63,36,10.58,YE,1689251595
456,olindina,-11.3667,-38.3333,26.01,63,3,2.38,BR,1689251596
457,vel'sk,61.0701,42.0983,15.12,80,100,2.69,RU,1689251597
458,khandyga,62.6667,135.6,15.9,64,13,2.81,RU,1689251597
459,labytnangi,66.6572,66.4183,16.47,37,1,4.35,RU,1689251598
460,san rafael del sur,11.8485,-86.4384,24.54,76,11,5.64,NI,1689251598
461,codrington,-38.2667,141.9667,11.5,58,100,9.26,AU,1689251599
462,rurrenabaque,-14.4413,-67.5278,22.94,100,40,1.54,BO,1689251599
463,palmer,42.1584,-72.3287,25.82,91,75,1.54,US,1689251600
464,wingham,43.8879,-81.3114,16.52,95,100,5.62,CA,1689251601
465,paita,-5.0892,-81.1144,21.53,81,64,4.75,PE,1689251601
466,nebbi,2.4783,31.0889,27.01,59,25,1.03,UG,1689251602
467,anar darah,32.7587,61.654,41.34,6,0,15.27,AF,1689251602
468,coyhaique,-45.5752,-72.0662,2.34,86,75,1.54,CL,1689251448
469,north las vegas,36.1989,-115.1175,31.68,25,0,11.18,US,1689251581
470,kyzyl-suu,42.3414,78.0056,23.97,42,0,0.82,KG,1689251604
471,kromy,52.6876,35.7667,23.43,48,3,6.64,RU,1689251605
472,johi,26.6921,67.6133,44.79,17,0,3.84,PK,1689251605
473,mirnyy,62.5353,113.9611,12.42,79,100,2.69,RU,1689251606
474,hami,42.8,93.45,34.13,13,0,2.47,CN,1689251379
475,oppdal,62.5943,9.6912,11.4,93,100,1.63,NO,1689251607
476,iquitos,-3.7481,-73.2472,24.02,94,20,0.0,PE,1689251608
477,saldanha,-33.0117,17.9442,25.03,43,3,6.44,ZA,1689251305
478,qamdo,31.1667,97.2333,8.53,77,100,2.26,CN,1689251610
479,dole,47.0833,5.5,28.05,38,0,2.06,FR,1689251610
480,parabel',58.6978,81.4825,24.59,68,32,2.86,RU,1689251604
481,laojunmiao,39.8333,97.7333,22.13,24,39,6.38,CN,1689251274
482,mendefera,14.8872,38.8153,24.98,45,42,5.39,ER,1689251612
483,prince rupert,54.3161,-130.3201,11.83,96,0,2.06,CA,1689251613
484,inhambane,-23.865,35.3833,19.99,73,40,4.12,MZ,1689251613
485,bezhetsk,57.7851,36.6965,11.3,96,100,5.64,RU,1689251614
486,zayukovo,43.6161,43.3339,25.12,64,60,1.7,RU,1689251615
487,riyadh,24.6877,46.7219,43.08,8,29,8.84,SA,1689251328
488,tres arroyos,-38.3739,-60.2798,4.63,74,8,1.7,AR,1689251616
489,fairmont,39.4851,-80.1426,24.94,77,0,3.97,US,1689251616
490,katsina-ala,7.1667,9.2833,30.41,63,100,1.57,NG,1689251617
491,cacapava,-23.1008,-45.7069,24.49,37,0,6.27,BR,1689251617
492,gao,16.6362,1.637,38.56,25,0,3.93,ML,1689251618
493,hinton,53.4001,-117.5857,13.4,77,13,1.87,CA,1689251619
494,nizhniy odes,63.6445,54.856,12.83,96,100,4.58,RU,1689251619
495,tralee,52.2704,-9.7026,16.14,94,100,2.06,IE,1689251620
496,polyarnyy,69.1989,33.4478,19.28,42,100,7.37,RU,1689251293
497,berdigestyakh,62.0989,126.6992,11.35,93,7,1.65,RU,1689251621
498,letterkenny,54.95,-7.7333,16.96,52,87,4.46,IE,1689251621
499,carbonear,47.7332,-53.2148,19.91,87,99,2.21,CA,1689251622
500,nurota,40.5614,65.6886,40.95,9,0,8.65,UZ,1689251622
501,newman,37.3138,-121.0208,19.05,50,0,1.96,US,1689251271
502,santa elena de uairen,4.6167,-61.1333,23.75,71,2,0.4,VE,1689251623
503,pisco,-13.7,-76.2167,19.03,77,100,3.09,PE,1689251624
504,sinabang,2.4803,96.3801,25.59,88,100,7.1,ID,1689251624
505,zabol,32.25,67.25,34.86,5,0,6.13,AF,1689251625
506,karaidel',55.8337,56.9069,20.9,42,100,1.54,RU,1689251625
507,ketchikan,55.3422,-131.6461,12.26,87,0,0.0,US,1689251626
508,kimbe,-5.5502,150.1429,23.85,87,54,3.26,PG,1689251626
509,la ronge,55.1001,-105.2842,14.14,72,75,3.6,CA,1689251627
510,gorlice,49.6556,21.1604,20.15,93,100,3.43,PL,1689251627
511,saint-francois,46.4154,3.9054,24.69,41,0,3.09,FR,1689251628
512,antsiranana,-12.2787,49.2917,29.42,48,20,8.23,MG,1689251628
513,laguna,38.421,-121.4238,20.01,73,0,3.09,US,1689251512
514,fitzgerald,31.7149,-83.2526,25.99,89,40,2.57,US,1689251629
515,passa quatro,-22.3903,-44.9667,24.25,39,0,4.63,BR,1689251630
516,americo brasiliense,-21.7244,-48.1017,24.03,39,0,5.32,BR,1689251630
517,berezovyy,51.6667,135.7,18.93,56,0,1.26,RU,1689251631
518,gembu,6.7,11.2667,20.51,90,100,2.79,NG,1689251631
519,lyantor,61.6195,72.1555,18.75,60,100,5.25,RU,1689251632
520,minas de marcona,-15.2119,-75.1103,12.48,85,65,5.93,PE,1689251633
521,taiyuan,37.8694,112.5603,25.92,41,0,3.0,CN,1689251633
522,whangarei,-35.7317,174.3239,12.69,87,71,3.88,NZ,1689251634
523,ventspils,57.3894,21.5606,19.96,77,40,5.14,LV,1689251634
524,luau,-10.7073,22.2247,30.56,18,0,1.18,AO,1689251635
525,tinajo,29.0788,-13.7081,32.49,43,0,10.8,ES,1689251636
526,kismayo,-0.3582,42.5454,26.8,70,43,9.42,SO,1689251636
527,merizo village,13.2658,144.6691,27.31,94,100,6.0,GU,1689251637
528,chachersk,52.9164,30.9179,23.95,60,60,3.76,BY,1689251637
529,trinidad,-14.8333,-64.9,23.99,83,20,2.06,BO,1689251384
530,pekanbaru,0.5333,101.45,30.18,70,20,2.57,ID,1689251638
531,brooks,50.5834,-111.8851,13.99,84,100,2.06,CA,1689251442
532,taoudenni,22.6783,-3.9836,47.34,5,1,9.81,ML,1689251640
533,st. john's,47.5649,-52.7093,19.66,82,75,5.14,CA,1689251291
534,poshekhon'ye,58.4993,39.1353,11.95,97,100,2.67,RU,1689251641
535,slawno,54.3628,16.6789,21.77,50,51,4.6,PL,1689251641
536,griffith,41.5284,-87.4237,18.92,88,100,3.09,US,1689251642
537,kilindoni,-7.9139,39.6668,25.4,65,100,7.36,TZ,1689251643
538,kokpekty,48.75,82.4,34.51,15,0,3.09,KZ,1689251643
539,charters towers,-20.1,146.2667,17.8,78,50,5.91,AU,1689251644
540,celestun,20.8667,-90.4,26.63,84,6,4.94,MX,1689251644
541,fale old settlement,-9.3852,-171.2468,28.43,71,27,5.65,TK,1689251315
542,juan griego,11.0817,-63.9655,28.17,76,42,6.92,VE,1689251646
543,kapa'a,22.0752,-159.319,26.18,84,20,5.14,US,1689251646
544,angel r. cabada,18.5833,-95.4333,25.06,87,48,1.0,MX,1689251363
545,katsuura,35.1333,140.3,25.59,83,100,6.9,JP,1689251647
546,vorgashor,67.5833,63.95,16.66,41,0,4.26,RU,1689251648
547,maracaibo,10.6317,-71.6406,29.16,72,16,2.27,VE,1689251496
548,matthew town,20.95,-73.6667,28.69,75,6,7.96,BS,1689251649
549,umba,66.6871,34.3429,20.14,37,34,5.25,RU,1689251650
550,uchiza,-8.4592,-76.4633,24.06,66,23,0.29,PE,1689251650
551,vernon,50.2581,-119.2691,15.25,81,10,0.0,CA,1689251650
552,dongola,19.1667,30.4833,43.77,9,0,6.28,SD,1689251280
553,manokwari,-0.8667,134.0833,25.65,84,100,1.83,ID,1689251652
554,kyren,51.6828,102.1408,16.02,84,46,1.17,RU,1689251652
555,wad az zaki,14.4619,32.2065,39.01,19,5,2.35,SD,1689251653
556,tual,-5.6667,132.75,26.23,84,100,8.47,ID,1689251654
557,skovorodino,53.9833,123.9167,16.7,95,100,3.23,RU,1689251654
558,port blair,11.6667,92.75,29.02,74,40,4.12,IN,1689251656
559,homer,59.6425,-151.5483,12.65,93,0,2.68,US,1689251656
560,anloga,5.7947,0.8973,27.06,75,96,3.85,GH,1689251311
561,kailua-kona,19.6406,-155.9956,26.44,86,75,2.57,US,1689251562
562,colonia,50.9333,6.95,24.6,48,20,5.66,DE,1689251593
563,mbaiki,3.8678,17.9892,28.78,62,72,0.91,CF,1689251658
564,jabat,7.75,168.9751,28.34,79,100,7.69,MH,1689251659
565,schelklingen,48.3758,9.7327,25.47,42,99,4.67,DE,1689251660
566,nevel'sk,46.6733,141.8633,13.43,93,100,2.13,RU,1689251660
567,hasaki,35.7333,140.8333,27.34,80,100,1.75,JP,1689251661
568,kayangel,8.0823,134.7173,28.13,74,97,0.99,PW,1689251295
569,kudamatsu,34.0,131.8667,26.98,91,100,0.82,JP,1689251662
570,la paz,-16.5,-68.15,9.76,22,28,2.06,BO,1689251663
571,mount gambier,-37.8333,140.7667,11.16,62,100,6.1,AU,1689251664
572,buta,2.7858,24.73,33.83,43,9,0.6,CD,1689251670
573,gryazi,52.4966,39.9359,20.34,54,100,4.25,RU,1689251603
574,kadi,23.3,72.3333,33.92,51,100,2.49,IN,1689251671
575,holualoa,19.6228,-155.9522,24.37,84,75,2.57,US,1689251671
576,kununurra,-15.7667,128.7333,19.99,64,11,2.57,AU,1689251672
577,bathsheba,13.2167,-59.5167,28.34,89,40,9.26,BB,1689251672
578,verkhovazh'ye,60.7472,42.0465,14.45,82,100,2.52,RU,1689251673
579,novyy urengoy,66.0833,76.6333,14.27,40,6,3.82,RU,1689251674
580,nizhniy ingash,56.2,96.53,20.36,67,68,1.92,RU,1689251674
581,juba,4.8517,31.5825,31.22,49,100,1.26,SS,1689251675
582,saint-pierre,-21.3393,55.4781,24.82,69,100,3.09,RE,1689251675
583,belyy yar,53.6039,91.3903,26.94,57,40,1.0,RU,1689251676
584,nellore,14.4333,79.9667,31.72,56,100,4.41,IN,1689251381
585,nagato,34.3833,131.2,24.99,91,100,3.36,JP,1689251677
586,sidi akkacha,36.4647,1.3026,41.16,33,2,3.41,DZ,1689251678
587,canutama,-6.5339,-64.3831,29.99,53,98,0.58,BR,1689251678
588,ishigaki,24.3448,124.1572,29.07,84,40,4.12,JP,1689251679
589,magnaga,7.1694,125.8931,26.99,86,100,0.59,PH,1689251679
590,qarazhal,48.0078,70.7903,38.35,12,5,5.4,KZ,1689251680
591,nova vicosa,-17.8919,-39.3719,25.89,63,5,4.49,BR,1689251680
592,inari,68.906,27.0288,20.11,47,100,4.4,FI,1689251681
593,shenjiamen,29.9576,122.298,25.51,91,100,9.4,CN,1689251682
594,ciudad acuna,29.3232,-100.9522,29.12,76,0,4.63,MX,1689251682
595,ebermannstadt,49.7822,11.1811,25.93,30,100,4.93,DE,1689251683
